time,.header.seq,.header.stamp.secs,.header.stamp.nsecs,.header.frame_id,.pose.pose.position.x,.pose.pose.position.y,.pose.pose.position.z,.pose.pose.orientation.x,.pose.pose.orientation.y,.pose.pose.orientation.z,.pose.pose.orientation.w,.pose.covariance
2022/07/12/22:54:15.594944,980,1537392896,423032,/world,0.089626967907,0.0204863362014,-1.26333701611,0.000183379523951,-7.23549322046e-05,-0.0183155359495,0.999832251009,"(1.0712212770158658e-06, 7.139878732687066e-08, 3.941035497945222e-09, 5.565514697991603e-07, 1.682179004092177e-06, 4.118749075132655e-07, 7.130110901698572e-08, 1.2540958778117783e-06, 3.4863848696886635e-08, -1.7064118082998903e-06, 1.1892233260368812e-06, 2.0833309122281207e-07, 4.095613181931412e-09, 3.534466230803446e-08, 8.516469165442686e-07, 1.0293791774529382e-07, 1.658523842706927e-07, -1.0702627406544707e-07, 5.587775717685872e-07, -1.7144750472652959e-06, 1.0033993191882473e-07, 0.00014467333676293492, 8.15175189927686e-06, -2.8619938348128926e-06, 1.6976614460872952e-06, 1.1897793683601776e-06, 1.6712344574898452e-07, 8.157363481586799e-06, 0.00012009105557808653, 1.2745313142659143e-06, 4.0572106740910385e-07, 2.0680869283751235e-07, -1.0800109606634578e-07, -2.86613499156374e-06, 1.2301337619646802e-06, 0.000130399945192039)"
2022/07/12/22:54:15.642727,981,1537392896,33596032,/world,0.0895657092333,0.0205017644912,-1.26246273518,-4.98120120524e-05,-0.00561756418625,-0.0178407588325,0.999825074871,"(1.071286533260718e-06, 7.021537129503486e-08, 1.6163145266645529e-09, 5.457467864289356e-07, 1.7590582501725294e-06, 3.9262158679775894e-07, 7.004201307836411e-08, 1.2510502074292162e-06, 2.750845418120207e-08, -1.7272542436330696e-06, 1.1606927046159399e-06, 2.3049111064210592e-07, 1.7544409258718474e-09, 2.8119870876253117e-08, 8.52236439641274e-07, 1.2556417061659886e-07, -5.224915611279357e-08, -1.204343078597958e-07, 5.447740818453894e-07, -1.7356504713461618e-06, 1.2233294910402037e-07, 0.00014469237066805363, 8.127653927658685e-06, -2.88645196633297e-06, 1.7738608448780724e-06, 1.1589139603529475e-06, -5.134194935862979e-08, 8.128463377943262e-06, 0.00012013185914838687, 1.2680181953328429e-06, 3.861858033360477e-07, 2.2877230776430224e-07, -1.2098254842385359e-07, -2.8803233362850733e-06, 1.2317460686972481e-06, 0.00013033200229983777)"
2022/07/12/22:54:15.664524,982,1537392896,66769032,/world,0.0895986929536,0.0204273276031,-1.26198470592,-0.000346701677544,-0.0099859349551,-0.0173299903134,0.999799902089,"(1.107139951272984e-06, 6.849793976471119e-08, -3.6992078289443953e-09, 5.44860029094707e-07, 1.9193405478290515e-06, 3.396243073439109e-07, 6.846408240335222e-08, 1.2586982620632625e-06, 1.2303381424771942e-08, -1.778454475243052e-06, 1.1420216878832434e-06, 2.8852088007624843e-07, -3.377603530196893e-09, 1.259814830234518e-08, 8.627777674519166e-07, 1.803265519129127e-07, -5.621297987090657e-07, -1.530862476784023e-07, 5.415375881057116e-07, -1.7876996025734115e-06, 1.784715522035185e-07, 0.00014463903789874166, 8.081085979938507e-06, -2.9037973945378326e-06, 1.931452061398886e-06, 1.1401398296584375e-06, -5.597984227279085e-07, 8.077028724073898e-06, 0.00012015148240607232, 1.250958007403824e-06, 3.387056608517014e-07, 2.84391092009173e-07, -1.5441719369846396e-07, -2.88172464024683e-06, 1.2455376463549328e-06, 0.00013009659596718848)"
2022/07/12/22:54:15.688442,983,1537392896,99940032,/world,0.0897219330072,0.0202461164445,-1.26164019108,-0.00115368770984,-0.0116843973268,-0.016842690394,0.999789208309,"(1.1483418802527012e-06, 6.6749024085766e-08, -7.617364516931957e-09, 5.351770937522815e-07, 2.0293343823141186e-06, 3.06484736256607e-07, 6.662495621867492e-08, 1.26825136703701e-06, 5.069694442028094e-09, -1.8169977238358115e-06, 1.10854728063714e-06, 3.2923571779974736e-07, -7.492952036614042e-09, 5.253227630674928e-09, 8.75794739840785e-07, 1.9350004265561438e-07, -8.787990850578353e-07, -1.6971861782622e-07, 5.31149453308899e-07, -1.8255695977131836e-06, 1.9257932137861644e-07, 0.00014461480895988643, 8.030720891838428e-06, -2.9446143798850244e-06, 2.0410309389262693e-06, 1.1069714673794806e-06, -8.764906169744791e-07, 8.021720532269683e-06, 0.00012020881695207208, 1.2459576055334765e-06, 3.0775873938182485e-07, 3.2551810136283166e-07, -1.7056618162314408e-07, -2.924796262959717e-06, 1.2476439223974012e-06, 0.00012982085172552615)"
2022/07/12/22:54:15.709383,984,1537392896,133117032,/world,0.0900631994009,0.0201792847365,-1.26163005829,-0.00256362937436,-0.0123426513606,-0.0163180464482,0.999787404887,"(1.1720012480509467e-06, 6.16372020090239e-08, -1.0026044883204577e-08, 5.200178065933869e-07, 2.096650632665842e-06, 2.9479798513420974e-07, 6.143656605672732e-08, 1.2734491292576422e-06, 3.845888496556427e-09, -1.836284582168446e-06, 1.0564742751739686e-06, 3.460165771684842e-07, -1.0070685618757125e-08, 4.2704466629572835e-09, 8.841697649586422e-07, 1.552406132532269e-07, -1.0139909818462911e-06, -1.7785751538212935e-07, 5.158018439033185e-07, -1.844146709117922e-06, 1.5409371201258182e-07, 0.00014459028898272663, 8.00599627837073e-06, -2.997973979290691e-06, 2.110539981003967e-06, 1.0560946748228162e-06, -1.0105188721354352e-06, 7.987657227204181e-06, 0.0001203216816065833, 1.2283619525987888e-06, 2.927600917246309e-07, 3.4304599694223725e-07, -1.7868678980903496e-07, -2.9764448754576733e-06, 1.2109990166209172e-06, 0.00012983741180505604)"
2022/07/12/22:54:15.737347,985,1537392896,166290032,/world,0.0910294428468,0.0200085248798,-1.26164007187,-0.00506396787311,-0.0120136136849,-0.0156088810453,0.999793172846,"(1.179543914986425e-06, 5.346387155213961e-08, -1.1667164123707607e-08, 5.017927833250724e-07, 2.1320395262591774e-06, 3.019511609636538e-07, 5.320796958585561e-08, 1.2759544461005135e-06, 6.092738757956795e-09, -1.8393777736491757e-06, 9.919566537064384e-07, 3.50969116880151e-07, -1.169754515473187e-08, 6.532665519642933e-09, 8.883683335625392e-07, 7.370725541022694e-08, -1.036491653394478e-06, -1.8036296012269304e-07, 4.974125431544962e-07, -1.8494201867724769e-06, 7.355239972639538e-08, 0.00014453538460657, 7.998066394065972e-06, -3.05315575133136e-06, 2.149553438357543e-06, 9.918285286403261e-07, -1.032370619213907e-06, 7.977209861564916e-06, 0.00012043496826663613, 1.2341446335994988e-06, 2.969901515825768e-07, 3.487048729766684e-07, -1.8158971215598285e-07, -3.035514509974746e-06, 1.1976370615229825e-06, 0.0001299255818594247)"
2022/07/12/22:54:15.763637,986,1537392896,199461032,/world,0.092328839004,0.0200003422797,-1.26198577881,-0.00841340519878,-0.0112046525468,-0.0150240483398,0.999788954936,"(1.1752966884159832e-06, 4.3301071173118544e-08, -1.24611361229654e-08, 4.78498861866683e-07, 2.1390751498984173e-06, 3.2505806757399114e-07, 4.29615347741219e-08, 1.2781180203091935e-06, 1.0445926790225712e-08, -1.8224750419904012e-06, 9.133398179983487e-07, 3.5312831414557877e-07, -1.2570055218930065e-08, 1.1080429906940026e-08, 8.916618412513344e-07, -4.850486590157743e-08, -9.72396151155408e-07, -1.8207704499673127e-07, 4.748134188048425e-07, -1.834615090956504e-06, -4.797010433321702e-08, 0.00014438919606618583, 8.005152267287485e-06, -3.1405641038873e-06, 2.1601986190944444e-06, 9.139704957306094e-07, -9.676400622993242e-07, 7.9842811828712e-06, 0.00012050552322762087, 1.2593994824783294e-06, 3.182529724199412e-07, 3.5142460319548263e-07, -1.8289080117028789e-07, -3.12797283186228e-06, 1.2113357570342487e-06, 0.00012996848090551794)"
2022/07/12/22:54:15.780644,987,1537392896,232633032,/world,0.0934892445803,0.0199868641794,-1.26194930077,-0.0113421117657,-0.010448896572,-0.014617587659,0.999774251729,"(1.1715701475623064e-06, 3.165202855370808e-08, -1.2814574290587188e-08, 4.5397160874927067e-07, 2.1354160253395094e-06, 3.586068260119646e-07, 3.111566471147853e-08, 1.2883100453109364e-06, 1.5485616344790287e-08, -1.8001331909545115e-06, 8.261928883257497e-07, 3.5104753237646946e-07, -1.2943868199499775e-08, 1.6040072381429127e-08, 9.004896242004179e-07, -2.0919563326060597e-07, -8.605189236732258e-07, -1.806897245160144e-07, 4.5166672180130263e-07, -1.8126914937965921e-06, -2.069688633810074e-07, 0.00014418514911085367, 8.020901077543385e-06, -3.2155382996279513e-06, 2.1588930394500494e-06, 8.258596722043876e-07, -8.562271318623971e-07, 8.008109944057651e-06, 0.00012055687693646178, 1.3214546470408095e-06, 3.5106333484691277e-07, 3.511216846163734e-07, -1.8132008960947132e-07, -3.218221536371857e-06, 1.264399088540813e-06, 0.00013006551307626069)"
2022/07/12/22:54:15.806840,988,1537392896,265805032,/world,0.095406241715,0.0196330435574,-1.26191043854,-0.0156042745428,-0.00922915209879,-0.0141160994484,0.999736005984,"(1.1726302773240604e-06, 2.0286300639327237e-08, -1.2644632008118606e-08, 4.251571397162479e-07, 2.1259656932670623e-06, 3.979828022693255e-07, 1.9659989192177818e-08, 1.3098981526127318e-06, 2.0744062467770163e-08, -1.7698753254080657e-06, 7.330407925110194e-07, 3.4440844842720253e-07, -1.271078620135313e-08, 2.1490762946996256e-08, 9.166369068225322e-07, -4.08750167935068e-07, -7.199299147941929e-07, -1.8415983049635543e-07, 4.253815006904915e-07, -1.7813312069847598e-06, -4.0552419022787944e-07, 0.00014383021334651858, 8.00415455159964e-06, -3.291999291832326e-06, 2.1494802240340505e-06, 7.329197160288459e-07, -7.141681521716237e-07, 8.00757607066771e-06, 0.00012054938270011917, 1.3957595683677937e-06, 3.915775721452519e-07, 3.443891785082087e-07, -1.8411127200579358e-07, -3.3000976600305876e-06, 1.339881805506593e-06, 0.0001301243610214442)"
2022/07/12/22:54:15.828547,989,1537392896,299000032,/world,0.0971131101251,0.01902028732,-1.26158714294,-0.0197366452292,-0.00811507837954,-0.013690736235,0.999678537735,"(1.1804804671555758e-06, 1.0168216491024396e-08, -1.177393027518292e-08, 3.931423293579428e-07, 2.118946895279805e-06, 4.419633796715061e-07, 9.722850968785224e-09, 1.3465722759065102e-06, 2.6620710968927597e-08, -1.7386522586093633e-06, 6.270485641834966e-07, 3.3660793974377157e-07, -1.1758276130535705e-08, 2.7348225017931327e-08, 9.434794492335641e-07, -6.428268193303666e-07, -5.495209620676178e-07, -1.8147974856219662e-07, 3.941030399801093e-07, -1.7499787645647302e-06, -6.358134214679012e-07, 0.00014332460705190897, 7.961634764797054e-06, -3.337602038300247e-06, 2.1410717181424843e-06, 6.278015121097269e-07, -5.424275286713964e-07, 7.982595889188815e-06, 0.00012054049147991464, 1.497891162216547e-06, 4.3380717329455365e-07, 3.3595506465644576e-07, -1.8224366726826702e-07, -3.3526391689520096e-06, 1.4231411569198826e-06, 0.00013016679440625012)"
2022/07/12/22:54:15.856521,990,1537392896,332151032,/world,0.0992875173688,0.0174724496901,-1.26190757751,-0.0256370558811,-0.00690130859104,-0.0131791981218,0.999560617239,"(1.201730924549338e-06, 1.3546543886633344e-09, -1.0501729263978632e-08, 3.5652908536576433e-07, 2.120717681464157e-06, 4.909915674033982e-07, 8.874240786660437e-10, 1.4065293498788378e-06, 3.285053651325143e-08, -1.7066126929421443e-06, 5.076208253740333e-07, 3.2853392895049183e-07, -1.034247798514798e-08, 3.353624578039671e-08, 9.86624172583106e-07, -9.282256883125228e-07, -3.574251365989767e-07, -1.8116139699486666e-07, 3.597326099225029e-07, -1.715943540148146e-06, -9.182535336549336e-07, 0.0001425977679900825, 7.851245754864067e-06, -3.403245273148059e-06, 2.1425892100523924e-06, 5.073581519354775e-07, -3.4899704814961297e-07, 7.900538548710756e-06, 0.00012051032535964623, 1.6293291764668538e-06, 4.840284759666247e-07, 3.269339856615261e-07, -1.8316625016723265e-07, -3.42833095601236e-06, 1.5495038496737834e-06, 0.00013013787975069135)"
2022/07/12/22:54:15.881471,991,1537392896,365325032,/world,0.101389549673,0.0155847165734,-1.26193165779,-0.0311197677691,-0.00612065435649,-0.0127862322516,0.99941515957,"(1.2419204722391441e-06, -7.76559527793097e-09, -8.867437450987836e-09, 3.249004123517807e-07, 2.1463602024596184e-06, 5.410649919213029e-07, -8.253280725512013e-09, 1.49545599015255e-06, 3.940857951079124e-08, -1.6855410649441183e-06, 3.8411090486079047e-07, 3.181405077157251e-07, -8.772269133316968e-09, 4.024667177304764e-08, 1.049353159032762e-06, -1.2674538538703928e-06, -1.806803737736118e-07, -1.8942016311029874e-07, 3.287096319581906e-07, -1.6923867178775254e-06, -1.2526425052783452e-06, 0.00014163766172714531, 7.670816557947546e-06, -3.4833069548767526e-06, 2.162742930522654e-06, 3.8334425767061475e-07, -1.7157329068595573e-07, 7.741213266854174e-06, 0.00012052042438881472, 1.7631485889069154e-06, 5.338524715625681e-07, 3.1779103437656886e-07, -1.8892026787398208e-07, -3.5029943319386803e-06, 1.6880691191545338e-06, 0.00013011071132496)"
2022/07/12/22:54:15.903523,992,1537392896,398499032,/world,0.103475503623,0.0127888694406,-1.26168596745,-0.0368005302449,-0.00597924508916,-0.0124661134408,0.999227001523,"(1.2941069371663616e-06, -1.633002355561075e-08, -7.321041994856614e-09, 2.9332437634366215e-07, 2.1907076188654173e-06, 5.871335133633693e-07, -1.6518029610779195e-08, 1.6023225271055708e-06, 4.6858847468911335e-08, -1.6591881148997345e-06, 2.671000629561604e-07, 3.14374261733974e-07, -7.453910377819284e-09, 4.6928601449280904e-08, 1.1228061111978604e-06, -1.6651083569740877e-06, -4.616707371951634e-08, -2.0249299836905266e-07, 2.906869838170678e-07, -1.6583296655880986e-06, -1.6631057633276214e-06, 0.00013979646610096097, 7.270672995218774e-06, -3.613952003433951e-06, 2.1928171918261796e-06, 2.6588861601339886e-07, -4.682998522298476e-08, 7.256185654114233e-06, 0.00012049180804751813, 1.864702198872692e-06, 5.906605338168447e-07, 3.126633885131014e-07, -2.0482478646499658e-07, -3.6626252040150575e-06, 1.8854217387342942e-06, 0.00012992206029593945)"
2022/07/12/22:54:15.927311,993,1537392896,431670032,/world,0.105262830853,0.00918009877205,-1.26130139828,-0.0416669073455,-0.00666634255007,-0.0122110779305,0.999034698811,"(1.3636871472044731e-06, -3.028761952350578e-08, -5.619189558103699e-09, 2.7444420425126737e-07, 2.2717838419339387e-06, 6.350282433231769e-07, -3.0558297225979913e-08, 1.734759734972613e-06, 5.3597577931441265e-08, -1.6588976450293558e-06, 1.4054469943403092e-07, 3.112422461981623e-07, -5.380217160677603e-09, 5.437025052401623e-08, 1.2119718348913011e-06, -2.0922627754771383e-06, 4.391599617292741e-08, -2.1653320914083451e-07, 2.7879221420334943e-07, -1.665175204834668e-06, -2.0649208636314142e-06, 0.00013822487380821258, 6.948951522645075e-06, -3.6753613130713347e-06, 2.2878577965457225e-06, 1.4075868648433243e-07, 5.5626934170049935e-08, 7.049620762700215e-06, 0.00012057980347890407, 2.0509235127974534e-06, 6.242937047318264e-07, 3.077713017773931e-07, -2.202106941240345e-07, -3.7232102840789594e-06, 1.947810233104974e-06, 0.00012976022844668478)"
2022/07/12/22:54:15.949237,994,1537392896,464846032,/world,0.106577068567,0.0054024993442,-1.26091897488,-0.0455241360684,-0.00811673186368,-0.0120813894117,0.998857210263,"(1.4422364529309561e-06, -5.252875823202885e-08, -4.3658530124446315e-09, 2.515546952963632e-07, 2.3849299850553507e-06, 6.787116149098438e-07, -5.2797293648154664e-08, 1.8751541119854664e-06, 6.032043131654063e-08, -1.6737129726607236e-06, 2.510160612700929e-08, 3.15373569037547e-07, -4.1714502962975075e-09, 6.127378071596468e-08, 1.3052145959591144e-06, -2.5303850179625442e-06, 5.0302062959417526e-08, -2.4246836005659134e-07, 2.5685750415505026e-07, -1.6788970924608293e-06, -2.4991722966660745e-06, 0.00013650531764142215, 6.548915735038463e-06, -3.782623025472276e-06, 2.4021633180382196e-06, 2.5488620991609423e-08, 6.239055494461354e-08, 6.660142844339134e-06, 0.00012069086369592696, 2.2288224954536417e-06, 6.647347277066729e-07, 3.1131978062148846e-07, -2.4422158162451524e-07, -3.828374701697612e-06, 2.1286441551637836e-06, 0.0001295615656999871)"
2022/07/12/22:54:15.963587,995,1537392896,498021032,/world,0.107886835933,0.000876134610735,-1.2603700161,-0.0490610943548,-0.0103848054055,-0.0119493386327,0.998670304906,"(1.537370167170593e-06, -9.309312787308954e-08, -6.650770600913347e-09, 2.2013055911429547e-07, 2.5408905912627233e-06, 7.201850280580402e-07, -9.339771622762782e-08, 2.0287345705582993e-06, 6.795619356125826e-08, -1.7044283140421612e-06, -7.615930286419825e-08, 3.2923404091889097e-07, -5.834258409720405e-09, 6.89044981072584e-08, 1.4075493481868762e-06, -2.9911611818533856e-06, -6.078009562315856e-08, -2.739139404184243e-07, 2.3473215549074666e-07, -1.71021804362681e-06, -2.9490574888768606e-06, 0.00013456647866405547, 6.029809810570441e-06, -3.868199200951494e-06, 2.5597230433049845e-06, -7.581518701726964e-08, -4.2942748024188404e-08, 6.2094190980133135e-06, 0.00012082194007234648, 2.4237174329755362e-06, 7.012470177869545e-07, 3.243956427922967e-07, -2.793536282297282e-07, -3.9912179090606514e-06, 2.313094682904193e-06, 0.00012938975123688579)"
2022/07/12/22:54:15.993130,996,1537392896,531189032,/world,0.109629161656,-0.0051336013712,-1.25985503197,-0.0526595592729,-0.0148048532055,-0.01189722529,0.998431891066,"(1.6497915567015298e-06, -1.5703662370469829e-07, -1.2440351859765997e-08, 1.7797971452182537e-07, 2.7417520414019236e-06, 7.582163448205392e-07, -1.5682176979225915e-07, 2.183313199566328e-06, 7.410578461986006e-08, -1.7678081576377735e-06, -1.6558254856136045e-07, 3.655509317468386e-07, -1.174188479780014e-08, 7.544626612343563e-08, 1.5104573094504303e-06, -3.4548056646599434e-06, -3.100372509834415e-07, -3.1610139217264077e-07, 1.8920295019597688e-07, -1.7705860955175012e-06, -3.4133038298023166e-06, 0.000132631030282937, 5.405342562880833e-06, -4.022333087050356e-06, 2.7643923203868326e-06, -1.628246479867812e-07, -2.9193518003012286e-07, 5.566719664784614e-06, 0.00012094954581698403, 2.614530103528523e-06, 7.302155609067995e-07, 3.5297566114422807e-07, -3.2438697417092044e-07, -4.127853571844753e-06, 2.482481477272813e-06, 0.0001289939391426742)"
2022/07/12/22:54:16.014642,997,1537392896,564362032,/world,0.111908890307,-0.012942161411,-1.25894391537,-0.0561967477515,-0.0214138697315,-0.0119679743732,0.998118314034,"(1.8160347963203094e-06, -2.6503624894758104e-07, -2.521753650341907e-08, 1.2692215989318356e-07, 3.026521881110966e-06, 7.809026101313066e-07, -2.6452565293766384e-07, 2.346882183701382e-06, 7.994479744866112e-08, -1.8780020809572306e-06, -2.2615186878738314e-07, 4.2809256228792947e-07, -2.42563906738269e-08, 8.132703044338996e-08, 1.624756009732664e-06, -3.925631062884349e-06, -7.957541470204887e-07, -3.6239237033441896e-07, 1.4096940503804944e-07, -1.8777913055600948e-06, -3.880256372212898e-06, 0.0001305995392613113, 4.598902251018444e-06, -4.129429726162925e-06, 3.0483272439596476e-06, -2.228267419468466e-07, -7.742228831375542e-07, 4.785498276760336e-06, 0.0001210553600685671, 2.789731070151902e-06, 7.498377954107127e-07, 4.1137428752335836e-07, -3.746521315406426e-07, -4.276294475857867e-06, 2.6653281111066462e-06, 0.00012845110904891044)"
2022/07/12/22:54:16.033228,998,1537392896,597561032,/world,0.113929502666,-0.0204412844032,-1.25775134563,-0.0585031259849,-0.02782555261,-0.0120590521295,0.997826501513,"(2.0682020931417355e-06, -4.145235550367943e-07, -4.620923732545634e-08, 8.850611976640721e-08, 3.3958476706175134e-06, 7.723428439021518e-07, -4.141490137499204e-07, 2.5285805804742267e-06, 8.638478021794072e-08, -2.0396892068674788e-06, -2.581928129075095e-07, 5.111835434945533e-07, -4.5101234746880436e-08, 8.720863320377248e-08, 1.764393914527318e-06, -4.396192707645241e-06, -1.4789819715588237e-06, -4.13298124612993e-07, 1.0432363950485524e-07, -2.042378355326946e-06, -4.341457497503143e-06, 0.00012866103497799486, 3.667422333819559e-06, -4.198228907625889e-06, 3.4146976304327836e-06, -2.570934611867415e-07, -1.4515283055516193e-06, 3.901696800312493e-06, 0.00012115426216041669, 2.885218691517366e-06, 7.501412255805917e-07, 4.961429453942401e-07, -4.242238276219723e-07, -4.361428182164673e-06, 2.806099246299709e-06, 0.00012770779721904546)"
2022/07/12/22:54:16.059687,999,1537392896,630708032,/world,0.116529591382,-0.0311609003693,-1.25737833977,-0.0602699926435,-0.0368005729041,-0.0125133563997,0.997425027458,"(2.384858817094937e-06, -5.861812155671942e-07, -9.111349186241569e-08, 8.412426311110721e-09, 3.7716647511842893e-06, 6.844831546004571e-07, -5.854998335053097e-07, 2.7055527880293084e-06, 9.632702813178184e-08, -2.2382951101462822e-06, -2.5316643359474256e-07, 6.027994459145702e-07, -8.968006426357533e-08, 9.740999473706324e-08, 1.9033174112337292e-06, -4.911605174129363e-06, -2.3706677438894985e-06, -4.872733825322939e-07, 2.4260899067485298e-08, -2.236018417534069e-06, -4.855839051742805e-06, 0.00012657618208322674, 2.38377288042102e-06, -4.426665782375494e-06, 3.791263452512794e-06, -2.514667016839667e-07, -2.338204467378091e-06, 2.622702140797628e-06, 0.00012108442751923576, 2.824584271365893e-06, 6.578515012733988e-07, 5.828719054079556e-07, -5.074762157164514e-07, -4.622409051080467e-06, 2.746244490481331e-06, 0.00012692091695498675)"
2022/07/12/22:54:16.080298,1000,1537392896,663882032,/world,0.120873034,-0.0424468554556,-1.25653862953,-0.0604666974227,-0.0481491114125,-0.0130319674202,0.996923064027,"(2.8605174975382397e-06, -7.836942472749797e-07, -1.3899193618271966e-07, 4.071187476029081e-08, 4.268563770892797e-06, 6.021809326739458e-07, -7.831781090317236e-07, 2.8767567528120708e-06, 9.65071222935876e-08, -2.535118710511597e-06, -1.9630293479622196e-07, 7.085178594934405e-07, -1.3805971832425712e-07, 9.673328094095268e-08, 2.0565048544085585e-06, -5.446976956591243e-06, -3.505879249132704e-06, -4.6333363457051746e-07, 5.315760276403125e-08, -2.537270802349667e-06, -5.402727310865885e-06, 0.00012424755550455302, 7.762361065033474e-07, -4.098363206139766e-06, 4.288671334506944e-06, -1.9771290737935487e-07, -3.4768656860251212e-06, 9.887284022624954e-07, 0.0001208495523314923, 2.8892361569887726e-06, 5.786815790997935e-07, 6.941706374163914e-07, -4.755620750529488e-07, -4.227124009048566e-06, 2.8440995265555102e-06, 0.0001260082353837788)"
2022/07/12/22:54:16.102252,1001,1537392896,697056032,/world,0.125124961138,-0.0549095086753,-1.25535559654,-0.0577272351073,-0.0609825632108,-0.0138539237769,0.996371802622,"(3.560063305485528e-06, -9.93187654785288e-07, -2.09278212537356e-07, 1.2544647631784756e-07, 4.868321411777288e-06, 4.82184077554848e-07, -9.930123496815213e-07, 3.0300150228868006e-06, 9.410997137138111e-08, -2.887348045987892e-06, -7.36686160962563e-08, 7.800205139574246e-07, -2.0784089826975105e-07, 9.426688762914637e-08, 2.2764766072214115e-06, -5.704283012164524e-06, -4.883973360847449e-06, -4.7490769361502316e-07, 1.3341994531401724e-07, -2.8872445909655653e-06, -5.657224846800091e-06, 0.00012329677701927722, -4.4303067170403665e-07, -4.170829924987629e-06, 4.883896508545149e-06, -7.58142704171405e-08, -4.845801413466688e-06, -2.155364171585461e-07, 0.00012073446123395115, 2.7943854092882248e-06, 4.735073844130966e-07, 7.692203212172899e-07, -4.903740205008944e-07, -4.3026834646298084e-06, 2.768419562926283e-06, 0.0001256550895050168)"
2022/07/12/22:54:16.144185,1002,1537392896,730227032,/world,0.133959636092,-0.0749928280711,-1.25518155098,-0.049152285832,-0.0812447281795,-0.0159938226815,0.995352981978,"(4.499211172515061e-06, -1.1476372492325027e-06, -3.138952990866528e-07, 3.2318064313585637e-07, 5.494628112501232e-06, 3.139814737096458e-07, -1.1469406899777823e-06, 3.126737965430948e-06, 7.427578196939066e-08, -3.3040821563190548e-06, 1.5532185670963372e-07, 8.316079629366868e-07, -3.10878704112838e-07, 7.428982229384928e-08, 2.532143980715773e-06, -5.729701115342323e-06, -6.5933450059674215e-06, -4.5509781898545043e-07, 3.344785000081174e-07, -3.305940936115803e-06, -5.695302661479218e-06, 0.00012295843043830246, -1.6436433725175448e-06, -4.259697561792564e-06, 5.5276818784477655e-06, 1.5251487184286816e-07, -6.550338639499387e-06, -1.4490889270746266e-06, 0.00012034177780151367, 2.5982931219914462e-06, 2.8975887289561797e-07, 8.194750193979417e-07, -4.729340616904665e-07, -4.374212949187495e-06, 2.557623247412266e-06, 0.0001255101233255118)"
2022/07/12/22:54:16.168223,1003,1537392896,763401032,/world,0.141679301858,-0.089996278286,-1.25464773178,-0.03865403949,-0.0961437082284,-0.0184330647936,0.994445828877,"(5.664105628966354e-06, -1.1817363656518864e-06, -4.5889311195423943e-07, 7.19134334303817e-07, 6.076401859900216e-06, 1.1597135340934983e-07, -1.1802000017269165e-06, 3.2052569167717593e-06, 1.861961429483472e-08, -3.769927616303903e-06, 5.302646286509116e-07, 8.966566156232147e-07, -4.5508483026424074e-07, 1.891925904828895e-08, 2.856790842997725e-06, -5.5451009757234715e-06, -8.548443474865053e-06, -3.5506948847796593e-07, 7.269821367117402e-07, -3.776930498133879e-06, -5.532719114853535e-06, 0.00012309725570958108, -2.7365060759620974e-06, -4.186779733572621e-06, 6.1232040025061e-06, 5.274786758491246e-07, -8.52004268381279e-06, -2.6005857307609404e-06, 0.00011951079068239778, 2.3542731923953397e-06, 7.319319905718658e-08, 8.911100621844525e-07, -3.7055130519547674e-07, -4.23506207880564e-06, 2.2541380531038158e-06, 0.000125420861877501)"
2022/07/12/22:54:16.186741,1004,1537392896,796575032,/world,0.149958059192,-0.104339890182,-1.2547545433,-0.0255914430784,-0.107957868579,-0.0214973696708,0.993593496319,"(7.010065019130707e-06, -1.005052354230429e-06, -6.422266665140342e-07, 1.438282197341323e-06, 6.5502676989126485e-06, -6.127969953695356e-08, -1.0026601557910908e-06, 3.2696364087314578e-06, -9.378265275472586e-08, -4.193974291410996e-06, 1.082330413737509e-06, 9.120179242927406e-07, -6.376623673531867e-07, -9.300722325633615e-08, 3.2692673812562134e-06, -4.964815616403939e-06, -1.071937003871426e-05, -1.8728594852746028e-07, 1.4339140079755452e-06, -4.210438873997191e-06, -4.9634563765721396e-06, 0.0001238184340763837, -3.3541159609740134e-06, -4.175736194156343e-06, 6.624035449931398e-06, 1.0755511539173312e-06, -1.068682558980072e-05, -3.2538755476707593e-06, 0.00011832955351565033, 2.246829581054044e-06, -1.1179797354543553e-07, 9.086646173273039e-07, -2.003526162752678e-07, -4.202483978588134e-06, 2.130384018528275e-06, 0.00012579417671076953)"
2022/07/12/22:54:16.203547,1005,1537392896,829753032,/world,0.159430384636,-0.119107306004,-1.25533974171,-0.0106541427154,-0.11720495766,-0.025354334282,0.992726892749,"(8.353450539289042e-06, -5.303896273289865e-07, -8.050577662288561e-07, 2.578424982857541e-06, 7.037295290501788e-06, -1.8269017232341866e-07, -5.253036761132535e-07, 3.354890395712573e-06, -2.9904575171713077e-07, -4.414356226334348e-06, 1.8343395140618668e-06, 8.69494670041604e-07, -7.978680400810845e-07, -2.970119510337099e-07, 3.748461494978983e-06, -3.861433924612356e-06, -1.2803578101738822e-05, 3.975926787802564e-08, 2.5456158709857846e-06, -4.446427283255616e-06, -3.872806246363325e-06, 0.00012471577792894095, -3.3621372494962998e-06, -4.230300419294508e-06, 7.135937721614027e-06, 1.8292704453415354e-06, -1.274023361474974e-05, -3.3680883007036755e-06, 0.00011754739534808323, 2.2977324078965466e-06, -2.1892728341299517e-07, 8.704670904080558e-07, 9.421896152161935e-09, -4.296155566407833e-06, 2.1430746528494637e-06, 0.00012658738705795258)"
2022/07/12/22:54:16.230577,1006,1537392896,862920032,/world,0.176169902086,-0.140369221568,-1.25663161278,0.0134923796885,-0.126890537156,-0.032598594449,0.991289122556,"(9.473086720390711e-06, 2.5869999831229507e-07, -9.03719467260089e-07, 4.159061063546687e-06, 7.374312644969905e-06, -2.4678305976522097e-07, 2.685862341422762e-07, 3.5729171941056848e-06, -6.149157911750081e-07, -4.273686954547884e-06, 2.8543763619381934e-06, 7.838293640816119e-07, -8.956491797107446e-07, -6.107673584665463e-07, 4.299236479710089e-06, -2.221977183580748e-06, -1.4653398466180079e-05, 3.523222460444231e-07, 4.086133685632376e-06, -4.333881861384725e-06, -2.266463297928567e-06, 0.0001253264636034146, -2.833297912729904e-06, -4.339227416494396e-06, 7.4731451604748145e-06, 2.863826921384316e-06, -1.4579828530258965e-05, -3.057011326745851e-06, 0.00011693756823660806, 2.5375932182214456e-06, -2.8180315325698757e-07, 7.893070801401336e-07, 3.147656002511212e-07, -4.3875520532310475e-06, 2.36190658142732e-06, 0.00012760848039761186)"
2022/07/12/22:54:16.254526,1007,1537392896,896095032,/world,0.194022759795,-0.160377204418,-1.25787365437,0.0373890589827,-0.131696754206,-0.0409626054292,0.989737399138,"(1.039943344949279e-05, 1.3039583564022905e-06, -9.051581741914561e-07, 6.072081305319443e-06, 7.666985766263679e-06, -2.510675471967261e-07, 1.3127291822456755e-06, 4.1348566810484044e-06, -1.0412539950266364e-06, -3.7360068745329045e-06, 4.208411610306939e-06, 6.71520353989763e-07, -9.018166906571423e-07, -1.0368472658228711e-06, 4.953905317961471e-06, -7.11917635953796e-08, -1.626941593713127e-05, 7.574615210614866e-07, 6.030123131495202e-06, -3.8128471260279184e-06, -1.4493342348487204e-07, 0.00012526242062449455, -1.8546910496297642e-06, -4.497093868849333e-06, 7.798066690156702e-06, 4.208652171655558e-06, -1.6211910406127572e-05, -2.0045624751219293e-06, 0.00011649445514194667, 2.933514679170912e-06, -2.950550310742983e-07, 6.746906819898868e-07, 7.167276407926693e-07, -4.541505859378958e-06, 2.7078613129560836e-06, 0.00012874214735347778)"
2022/07/12/22:54:16.285763,1008,1537392896,929265032,/world,0.223687753081,-0.185561910272,-1.26160538197,0.0781469055024,-0.126826975917,-0.0550205206294,0.98730985676,"(1.0998181096510962e-05, 2.552030082370038e-06, -7.498146601392364e-07, 8.335615348187275e-06, 7.977141649462283e-06, -2.403628514002776e-07, 2.5533677217026707e-06, 5.233836418483406e-06, -1.5431805877597071e-06, -2.753126864263322e-06, 6.051146556274034e-06, 5.101563829157385e-07, -7.465094995495747e-07, -1.5416405858559301e-06, 5.69364692637464e-06, 2.7613855309027713e-06, -1.7471360479248688e-05, 1.2502946447057184e-06, 8.301116395159625e-06, -2.7697042241925374e-06, 2.6931882075587055e-06, 0.00012286478886380792, -5.263191269477829e-07, -4.959222678735387e-06, 7.985515367181506e-06, 6.055451649444876e-06, -1.7462252799305134e-05, -6.163315333651553e-07, 0.00011626152991084382, 3.216447112208698e-06, -2.4648147700645495e-07, 5.057973453403974e-07, 1.2431562481651781e-06, -4.881888798990985e-06, 3.197428441126249e-06, 0.00013001903425902128)"
2022/07/12/22:54:16.303993,1009,1537392896,962443032,/world,0.244426056743,-0.199729815125,-1.26409232616,0.104900165613,-0.115510566547,-0.0643086345874,0.985655957814,"(1.0866797310882248e-05, 3.896146154147573e-06, -3.002051300882158e-07, 1.0602555448713247e-05, 8.26615905680228e-06, -2.544410904192773e-07, 3.9047909012879245e-06, 7.181115961429896e-06, -2.0426593891897937e-06, -1.2181635611341335e-06, 8.58139173942618e-06, 1.816137853438704e-07, -2.9459849315571773e-07, -2.0402030713739805e-06, 6.5341459958290216e-06, 6.174430836836109e-06, -1.7772530554793775e-05, 1.7786197759050992e-06, 1.0538667083892506e-05, -1.307239472225774e-06, 6.053905053704511e-06, 0.00012259281356818974, 2.642913443651196e-07, -5.137174412084278e-06, 8.33329886518186e-06, 8.590514880779665e-06, -1.7719026800477877e-05, 5.772559319439097e-08, 0.00011726940283551812, 3.4725455861917e-06, -2.9720735028604395e-07, 1.7851166944637953e-07, 1.7039700423993054e-06, -5.033491561334813e-06, 3.295606120445882e-06, 0.00013176682114135474)"
2022/07/12/22:54:16.331977,1010,1537392896,995613032,/world,0.278684705496,-0.216582939029,-1.26903438568,0.148001527281,-0.0833047907941,-0.078738133125,0.982321830797,"(9.883623533823993e-06, 4.8135693759832066e-06, 4.4216025685273053e-07, 1.277908722840948e-05, 8.23698519525351e-06, -2.8029819532093825e-07, 4.816120053874329e-06, 1.0138364814338274e-05, -2.43042154579598e-06, 1.1407895499360166e-06, 1.1809947864094283e-05, -1.9109319282506476e-07, 4.4361306095197506e-07, -2.429802862025099e-06, 7.307406576728681e-06, 1.097303356800694e-05, -1.6599959053564817e-05, 2.5271867798437597e-06, 1.2746189895551652e-05, 1.1268355137872277e-06, 1.096004962164443e-05, 0.00011818879283964634, -6.139534036719851e-08, -5.879730451852083e-06, 8.249882739619352e-06, 1.1818566235888284e-05, -1.6598525689914823e-05, -9.268145362284486e-08, 0.00011803690722445026, 3.5714854220714187e-06, -2.8331965040706564e-07, -1.9624536662377068e-07, 2.5290212306572357e-06, -5.912041615374619e-06, 3.5329519505467033e-06, 0.00013340266013983637)"
2022/07/12/22:54:16.355770,1011,1537392897,29239643,/world,0.305537879467,-0.223858296871,-1.27383470535,0.177463782438,-0.0469092375856,-0.0893515910613,0.978939451917,"(8.398265890718903e-06, 4.695387360698078e-06, 1.4862888519928674e-06, 1.3919386219640728e-05, 7.635472684341948e-06, -3.3540717936375586e-07, 4.695507413998712e-06, 1.4315681255538948e-05, -2.595122168713715e-06, 4.2378883335914e-06, 1.5965128113748506e-05, -6.208264835549926e-07, 1.486316364207596e-06, -2.595120122350636e-06, 8.372606316697784e-06, 1.6193142073461786e-05, -1.3721897630603053e-05, 3.399105935386615e-06, 1.391992100252537e-05, 4.237209395796526e-06, 1.619628346816171e-05, 0.00011726989032467827, -9.928937743097777e-07, -6.466278591688024e-06, 7.637670933036134e-06, 1.5966466889949515e-05, -1.3722836229135282e-05, -9.961797786672832e-07, 0.00011897653166670352, 3.6407232073543128e-06, -3.370865044871607e-07, -6.22297307018016e-07, 3.396680085643311e-06, -6.48012201054371e-06, 3.633943606473622e-06, 0.00013509104610420763)"
2022/07/12/22:54:16.376522,1012,1537392897,62411643,/world,0.336866021156,-0.228982672095,-1.27715528011,0.202364814405,0.00279117268723,-0.100479796027,0.974137843856,"(7.32971102479496e-06, 2.878948407669668e-06, 2.7586031592363724e-06, 1.3664175639860332e-05, 6.009327989886515e-06, -5.248826937531703e-07, 2.895338866437669e-06, 1.9100580175290816e-05, -2.368458126511541e-06, 7.3618493843241595e-06, 2.072077404591255e-05, -1.210189338962664e-06, 2.756842832241091e-06, -2.3228535610542167e-06, 9.921259334078059e-06, 2.1045801986474544e-05, -9.584566214471124e-06, 3.937070232495898e-06, 1.3627662156068254e-05, 7.2133639150706585e-06, 2.0845536710112356e-05, 0.00011813634046120569, -1.2633796586669632e-06, -6.623088665946852e-06, 6.046922862879001e-06, 2.062323983409442e-05, -9.783588211575989e-06, -8.197855549951782e-07, 0.00012004481686744839, 4.3145309973624535e-06, -5.352186462914688e-07, -1.2498783235059818e-06, 3.83537599191186e-06, -6.481453056039754e-06, 4.358395472081611e-06, 0.00013766893243882805)"
2022/07/12/22:54:16.401228,1013,1537392897,95585643,/world,0.367320597172,-0.230287238955,-1.28000807762,0.218033227786,0.0608832457318,-0.111644996684,0.967620868378,"(7.928891136543825e-06, -8.850844324115315e-07, 4.200855073577259e-06, 1.198440349980956e-05, 2.8745928375428775e-06, -8.103145319182659e-07, -8.867113479027466e-07, 2.3769465769873932e-05, -1.7978751429836848e-06, 1.0094215213030111e-05, 2.609087823657319e-05, -2.0010265870951116e-06, 4.198712758807233e-06, -1.795730213416391e-06, 1.2076871826138813e-05, 2.543686787248589e-05, -3.7309723666112404e-06, 4.308863935875706e-06, 1.1976615496678278e-05, 1.010180676530581e-05, 2.5446592189837247e-05, 0.00011959299445152283, -1.4468856761595816e-06, -6.522349394799676e-06, 2.876378175642458e-06, 2.608855538710486e-05, -3.7337133562687086e-06, -1.4554547078660107e-06, 0.00012039767170790583, 5.149661319592269e-06, -7.971685249685834e-07, -2.0125294213357847e-06, 4.29402007284807e-06, -6.591023975488497e-06, 5.155322469363455e-06, 0.00014008798461873084)"
2022/07/12/22:54:16.425964,1014,1537392897,128759643,/world,0.398287177086,-0.226550593972,-1.28256320953,0.220494505149,0.126271490923,-0.125847274753,0.958957850445,"(1.1583719242480583e-05, -5.929582130193012e-06, 5.946763849351555e-06, 9.220135325449519e-06, -2.1156336060812464e-06, -1.1262691259616986e-06, -5.93133063375717e-06, 2.7546835553948767e-05, -9.102093940782652e-07, 1.1455863386800047e-05, 3.165206726407632e-05, -3.0082712783041643e-06, 5.909137598791858e-06, -8.45464285248454e-07, 1.5128052837098949e-05, 2.8708465833915398e-05, 3.301296828794875e-06, 4.561464720609365e-06, 9.188221156364307e-06, 1.1436245586082805e-05, 2.866763861675281e-05, 0.00012159605830674991, -6.798300091759302e-07, -6.217534519237233e-06, -2.057145820799633e-06, 3.163290602969937e-05, 3.165693897244637e-06, -6.75056526233675e-07, 0.0001210415139212273, 5.4766942412243225e-06, -1.0793364708661102e-06, -3.0046987831156002e-06, 4.472497039387235e-06, -6.263189789024182e-06, 5.498875907505862e-06, 0.0001426367525709793)"
2022/07/12/22:54:16.453261,1015,1537392897,162338839,/world,0.427173107862,-0.218084037304,-1.28586792946,0.207049545977,0.189096462993,-0.145998940076,0.948713529223,"(1.8482887753634714e-05, -1.0631634722813033e-05, 8.146666004904546e-06, 6.926129117346136e-06, -9.218079867423512e-06, -1.5945777249726234e-06, -1.0632935300236568e-05, 2.8933774956385605e-05, 1.7980163136144256e-07, 1.0525687685003504e-05, 3.730199750862084e-05, -3.9645142351218965e-06, 8.147215339704417e-06, 1.793835338048666e-07, 1.886691461550072e-05, 3.040727460756898e-05, 1.1122537216579076e-05, 4.678066034102812e-06, 6.93071206114837e-06, 1.0528556231292896e-05, 3.0418605092563666e-05, 0.00012272479943931103, 8.202541152968479e-07, -4.1178336687153205e-06, -9.217712431563996e-06, 3.729947638930753e-05, 1.1121894203824922e-05, 8.074690072135127e-07, 0.00012278153735678643, 5.258793407847406e-06, -1.6000155937945237e-06, -3.961322818213375e-06, 4.662922947318293e-06, -4.180749783699866e-06, 5.2634832172770984e-06, 0.00014228001236915588)"
2022/07/12/22:54:16.480827,1016,1537392897,195511839,/world,0.451582729816,-0.202265813947,-1.2858774662,0.175053398148,0.243393082813,-0.176183894088,0.937590229143,"(2.7214668079977855e-05, -1.3507678886526264e-05, 1.0312092854292132e-05, 6.865591331006726e-06, -1.7605942048248835e-05, -1.6038254671002505e-06, -1.3513090380001813e-05, 2.856716855603736e-05, 2.0398294964252273e-06, 7.500537776650162e-06, 4.1142509871860966e-05, -4.818658453586977e-06, 1.0305326213710941e-05, 2.0355503238533856e-06, 2.2883070414536633e-05, 3.0462279028142802e-05, 1.8030574210570194e-05, 4.5694014261243865e-06, 6.845847110525938e-06, 7.506575457227882e-06, 3.048954386031255e-05, 0.0001238309923792258, 2.0837037482124288e-06, -2.7730875444831327e-06, -1.7600888895685785e-05, 4.113761679036543e-05, 1.8029524653684348e-05, 2.0689274151663994e-06, 0.0001253399095730856, 6.207992555573583e-06, -1.599990582690225e-06, -4.808739504369441e-06, 4.5439896894095e-06, -2.795494083329686e-06, 6.204398232512176e-06, 0.00014241605822462589)"
2022/07/12/22:54:16.504390,1017,1537392897,228684839,/world,0.46575859189,-0.181220188737,-1.28339087963,0.135214933518,0.276444741391,-0.211270617608,0.927717614273,"(3.665934855234809e-05, -1.3787829630018678e-05, 1.1761916539398953e-05, 9.564350875734817e-06, -2.5706358428578824e-05, -3.9037996657498297e-07, -1.3791366654913872e-05, 2.777176814561244e-05, 5.296819836075883e-06, 3.937350811611395e-06, 4.261206049704924e-05, -5.390400474425405e-06, 1.1764595910790376e-05, 5.292034074955154e-06, 2.5995712348958477e-05, 2.8550621209433302e-05, 2.376538577664178e-05, 3.5658208616951015e-06, 9.565698746882845e-06, 3.931051196559565e-06, 2.855275488400366e-05, 0.0001247184700332582, 2.8168894914415432e-06, -3.749254574358929e-06, -2.57062947639497e-05, 4.261827052687295e-05, 2.3764450816088356e-05, 2.8108167953178054e-06, 0.00012791456538252532, 8.031790457607713e-06, -3.884431976075575e-07, -5.410198809840949e-06, 3.571230081433896e-06, -3.73547368326399e-06, 8.010426427063067e-06, 0.0001432081189705059)"
2022/07/12/22:54:16.527276,1018,1537392897,261859839,/world,0.47425827384,-0.156258180737,-1.27933084965,0.0892367120085,0.291108088059,-0.252812642278,0.91835649296,"(4.5566786866402254e-05, -1.160866395366611e-05, 1.2084157788194716e-05, 1.4974551049817819e-05, -3.249093788326718e-05, 1.1490727729324135e-06, -1.1679342605930287e-05, 2.8290238333283924e-05, 9.537116966384929e-06, 5.002847274226951e-07, 4.2728577682282776e-05, -4.905748482997296e-06, 1.2163240171503276e-05, 9.42454153118888e-06, 2.7554133339435793e-05, 2.505273005226627e-05, 2.7780615710071288e-05, 2.053893012998742e-06, 1.5051124137244187e-05, 3.7186714507697616e-07, 2.5236859073629603e-05, 0.00012609308760147542, 2.553479134803638e-06, -5.403307113738265e-06, -3.2425519748358056e-05, 4.266211544745602e-05, 2.785931974358391e-05, 2.6270818125340156e-06, 0.00013036611198913306, 9.776897968549747e-06, 1.1524942920004833e-06, -4.90994125357247e-06, 2.056551920759375e-06, -5.396570941229584e-06, 9.779034371604212e-06, 0.00014364166418090463)"
2022/07/12/22:54:16.542171,1019,1537392897,295030839,/world,0.476421564817,-0.139396950603,-1.27606117725,0.0604466522268,0.289946512709,-0.278422975108,0.913650852009,"(5.3534109611064196e-05, -7.900852324382868e-06, 1.1126609024358913e-05, 2.3413107555825263e-05, -3.644898970378563e-05, 3.2754182939243037e-06, -8.265648830274586e-06, 3.177175676682964e-05, 1.433392935723532e-05, -2.775478151306743e-06, 4.270469071343541e-05, -3.925587861886015e-06, 1.1185476068931166e-05, 1.4280425602919422e-05, 2.8263179046916775e-05, 2.1368359739426523e-05, 3.092694896622561e-05, 1.1429126516304677e-06, 2.3331429474637844e-05, -2.8095948891859734e-06, 2.1448800907819532e-05, 0.00012953858822584152, 1.6894034615688724e-06, -6.535541160701541e-06, -3.6149889638181776e-05, 4.2539555579423904e-05, 3.10051254928112e-05, 1.5408070339617552e-06, 0.00013380974996834993, 1.1505765542096924e-05, 3.187786433045403e-06, -3.8214243431866635e-06, 1.1309432466077851e-06, -6.273951839830261e-06, 1.1348994121362921e-05, 0.00014501105761155486)"
2022/07/12/22:54:16.567998,1020,1537392897,328202839,/world,0.471654683352,-0.10732807219,-1.27147960663,0.00930435344778,0.275920610528,-0.32322784342,0.905154700862,"(5.8991929108742625e-05, -3.343117214171798e-06, 8.596824955020566e-06, 3.4421835152897984e-05, -3.697958163684234e-05, 5.608831543213455e-06, -3.6327239740785444e-06, 3.800319609581493e-05, 1.8514987459639087e-05, -5.039699772169115e-06, 4.2526706238277256e-05, -1.993853629755904e-06, 8.431823516730219e-06, 1.8584036297397688e-05, 2.7285846954328008e-05, 1.6893172869458795e-05, 3.2881485822144896e-05, 4.5597749931403087e-07, 3.40637234330643e-05, -5.08982657265733e-06, 1.696937033557333e-05, 0.00013324525207281113, 1.1098923096142244e-06, -8.487840204907116e-06, -3.651939914561808e-05, 4.242200157023035e-05, 3.286416904302314e-05, 4.639723272248375e-07, 0.00013686435704585165, 1.3489534467225894e-05, 5.357709142117528e-06, -1.9608664842962753e-06, 3.9774934634806414e-07, -7.732251106062904e-06, 1.2997434168937616e-05, 0.00014592744992114604)"
2022/07/12/22:54:16.593919,1021,1537392897,361371839,/world,0.458765923977,-0.0713541805744,-1.26567721367,-0.042105908703,0.249652981442,-0.366814783359,0.895180104571,"(6.115764699643478e-05, 1.3433916592475725e-06, 4.80200333186076e-06, 4.710270877694711e-05, -3.430492870393209e-05, 1.0183894119109027e-05, 1.2495211194618605e-06, 4.6516091970261186e-05, 2.1435596863739192e-05, -5.3516919251705986e-06, 4.262791117071174e-05, -4.953292318532476e-07, 4.667098437494133e-06, 2.1478082999237813e-05, 2.496042179700453e-05, 1.1526269190653693e-05, 3.433682650211267e-05, 2.729783545873943e-07, 4.7152640036074445e-05, -5.984949893900193e-06, 1.1652133252937347e-05, 0.00013581161329057068, 1.3655719612870598e-06, -1.2285494449315593e-05, -3.414689126657322e-05, 4.2929110350087285e-05, 3.431304503465071e-05, 5.229211410551216e-07, 0.00013899833720643073, 1.4786521205678582e-05, 1.035779951052973e-05, -6.346136274260061e-07, 2.9491155828509363e-07, -1.1910563443962019e-05, 1.4808405467192642e-05, 0.00014103722060099244)"
2022/07/12/22:54:16.621681,1022,1537392897,394550839,/world,0.43408241868,-0.0254176929593,-1.26121854782,-0.0959011676834,0.202812453852,-0.413290979281,0.882530817312,"(6.272814061958343e-05, 4.575522780214669e-06, 6.11728808053158e-07, 5.7206241763196886e-05, -2.923098872997798e-05, 1.2438400517567061e-05, 4.233854269841686e-06, 5.621106902253814e-05, 2.2356221961672418e-05, -2.422330680929008e-06, 4.346080822870135e-05, 1.1696517958625918e-06, 5.557738518291444e-07, 2.2444552087108605e-05, 2.2282523786998354e-05, 5.887552561034681e-06, 3.504822961986065e-05, -1.31155036342534e-06, 5.819427678943612e-05, -3.553180476956186e-06, 5.695138952432899e-06, 0.00013681346899829805, 1.2696733620032319e-06, -1.4359424312715419e-05, -2.937690805993043e-05, 4.3934433051617816e-05, 3.515964999678545e-05, 3.879356711422588e-07, 0.00014020525850355625, 1.4823863239143975e-05, 1.2687644812103827e-05, 1.2798719808415626e-06, -1.2213911304570502e-06, -1.4255709174904041e-05, 1.5165012882789597e-05, 0.00013802247121930122)"
2022/07/12/22:54:16.643570,1023,1537392897,427721839,/world,0.409620910883,0.00890737678856,-1.25950551033,-0.130209351319,0.155029429919,-0.445524621631,0.872077565948,"(6.276975182117894e-05, 5.586586667050142e-06, -4.498730504565174e-06, 6.413250230252743e-05, -2.2636102585238405e-05, 1.3056990610493813e-05, 4.881537734036101e-06, 6.634672172367573e-05, 2.1289222786435857e-05, 3.818953246081946e-06, 4.567020005197264e-05, 3.3633918974373955e-06, -4.654252279578941e-06, 2.141404547728598e-05, 1.951056401594542e-05, -9.260003821509599e-07, 3.393536098883487e-05, -3.041173386009177e-06, 6.60550213069655e-05, 2.1715352431783685e-06, -1.236993853126478e-06, 0.00013365986524149776, 1.6711755961296149e-06, -1.632705971132964e-05, -2.2834354240330867e-05, 4.608666495187208e-05, 3.400362402317114e-05, 1.0184136272073374e-06, 0.00014009751612320542, 1.4169340829539578e-05, 1.3172650142223574e-05, 3.5968316751677776e-06, -3.025284513569204e-06, -1.6448826499981806e-05, 1.4501461009785999e-05, 0.00013484450755640864)"
2022/07/12/22:54:16.666325,1024,1537392897,460894839,/world,0.376743257046,0.0473694875836,-1.2589840889,-0.165547549593,0.0814492004297,-0.481586513794,0.856758117098,"(6.264515832299367e-05, 4.306273240217706e-06, -1.017185604723636e-05, 6.717874202877283e-05, -1.5537842045887373e-05, 1.226509175467072e-05, 3.352415660629049e-06, 7.650605402886868e-05, 1.769181835697964e-05, 1.1310030458844267e-05, 5.0920454668812454e-05, 5.952371793682687e-06, -1.0403093256172724e-05, 1.7816795661929063e-05, 1.733031422190834e-05, -8.996663382276893e-06, 3.022609234903939e-05, -4.536820142675424e-06, 6.983878120081499e-05, 9.469773431192152e-06, -9.35860225581564e-06, 0.00012959451123606414, 7.776673101034248e-07, -1.821139630919788e-05, -1.5603809515596367e-05, 5.1178951252950355e-05, 3.0253411750891246e-05, 5.834609737576102e-07, 0.00014009697770234197, 1.319639977737097e-05, 1.2145752407377586e-05, 6.240510174393421e-06, -4.610930773196742e-06, -1.8609258404467255e-05, 1.3423373275145423e-05, 0.00013227108865976334)"
2022/07/12/22:54:16.688768,1025,1537392897,494083839,/world,0.342935174704,0.0780356526375,-1.26143503189,-0.187290785461,0.00188922469616,-0.508749410731,0.840293196247,"(6.373895303113386e-05, 9.377851597491826e-07, -1.5694986359449103e-05, 6.596205639652908e-05, -9.669040082371794e-06, 1.0198574273090344e-05, -1.2091277312720194e-07, 8.568269549869001e-05, 1.1297595847281627e-05, 1.8732514945440926e-05, 5.92970936850179e-05, 8.796327165327966e-06, -1.597958180354908e-05, 1.1484230526548345e-05, 1.645258817006834e-05, -1.8110877135768533e-05, 2.3459348085452802e-05, -5.626940946967807e-06, 6.92706453264691e-05, 1.6893864085432142e-05, -1.858797622844577e-05, 0.00012510707892943174, -1.3431678098640987e-06, -2.0453257093322463e-05, -9.382012649439275e-06, 5.939981565461494e-05, 2.354085154365748e-05, -8.67447852215264e-07, 0.00013968691928312182, 1.2446824257494882e-05, 9.954089364327956e-06, 9.007062544696964e-06, -5.730993962060893e-06, -2.0865523765678518e-05, 1.2523090845206752e-05, 0.00013033846335019916)"
2022/07/12/22:54:16.710767,1026,1537392897,527245839,/world,0.300576269627,0.110575139523,-1.26309287548,-0.19773833612,-0.100251982258,-0.536343677542,0.814361434459,"(6.867667980259284e-05, -4.838826498598792e-06, -2.074415169772692e-05, 6.255226617213339e-05, -7.669721526326612e-06, 6.625992682529613e-06, -5.561760190175846e-06, 9.335657523479313e-05, 2.1185762761888327e-06, 2.3183518351288512e-05, 6.982959894230589e-05, 1.1206267117813695e-05, -2.093779949063901e-05, 2.3808547666703817e-06, 1.78178397618467e-05, -2.8092143111280166e-05, 1.3141454473952763e-05, -6.103323812567396e-06, 6.488742656074464e-05, 2.2008458472555503e-05, -2.8532364012789913e-05, 0.0001248043408850208, -4.617871582013322e-06, -2.320489329576958e-05, -7.23716721040546e-06, 6.993988063186407e-05, 1.3407631740847137e-05, -4.1242064980906434e-06, 0.0001375589781673625, 1.079111189028481e-05, 6.26718519924907e-06, 1.132344186771661e-05, -6.178178409754764e-06, -2.3650198272662237e-05, 1.0684342669264879e-05, 0.00012833390792366117)"
2022/07/12/22:54:16.738907,1027,1537392897,560412839,/world,0.254379093647,0.136968761683,-1.26829040051,-0.189625590163,-0.203280810749,-0.561327961479,0.779506244117,"(7.861243648221716e-05, -1.011406766338041e-05, -2.4557744836783968e-05, 5.6612450862303376e-05, -1.0178670891036745e-05, 3.0054141006985446e-06, -1.0799325536936522e-05, 9.926355414791033e-05, -1.0119850230694283e-05, 2.548333395679947e-05, 8.202082972275093e-05, 1.319864077231614e-05, -2.4922412194428034e-05, -9.458120985073037e-06, 2.260710607515648e-05, -3.6889923649141565e-05, -9.366907534058555e-07, -6.344052053464111e-06, 5.8736233768286183e-05, 2.406177736702375e-05, -3.782657950068824e-05, 0.0001260285498574376, -7.0585906541964505e-06, -2.4928234779508784e-05, -9.793902790988795e-06, 8.261705079348758e-05, -3.960549861403706e-07, -7.0644987317791674e-06, 0.00013695290545001626, 9.40057543630246e-06, 2.428959078315529e-06, 1.3387932085606735e-05, -6.248954832699383e-06, -2.566742114140652e-05, 9.277622666559182e-06, 0.00012624751252587885)"
2022/07/12/22:54:16.769530,1028,1537392897,593590839,/world,0.201050400734,0.161150604486,-1.27669763565,-0.146511040064,-0.315808206036,-0.590600159375,0.728004940054,"(9.184124792227522e-05, -1.4638174434367102e-05, -2.582605702627916e-05, 5.000193777959794e-05, -2.1079909856780432e-05, -8.157064144143078e-07, -1.465249079046771e-05, 9.835424862103537e-05, -2.295306148880627e-05, 2.6545267246547155e-05, 8.701688057044521e-05, 1.4284721146395896e-05, -2.5822777388384566e-05, -2.2957092369324528e-05, 2.9921970053692348e-05, -4.25743346568197e-05, -1.4665939488622826e-05, -6.087309429858578e-06, 5.001177123631351e-05, 2.6316401999793015e-05, -4.2572904931148514e-05, 0.00012684613466262817, -7.873950380599126e-06, -2.610561205074191e-05, -2.109115848725196e-05, 8.734850416658446e-05, -1.4668040421383921e-05, -8.109821465041023e-06, 0.00013028488319832832, 7.835220458218828e-06, -8.271966862594127e-07, 1.449189949198626e-05, -6.0952834246563725e-06, -2.6252930183545686e-05, 8.045853064686526e-06, 0.00012346178118605167)"
2022/07/12/22:54:16.793018,1029,1537392897,626784839,/world,0.162044852972,0.172096431255,-1.28773164749,-0.0890709632848,-0.378668045593,-0.611914373946,0.688649206632,"(0.00010655469668563455, -1.4680526874144562e-05, -2.382107231824193e-05, 4.640577390091494e-05, -3.652603118098341e-05, -4.630614057532512e-06, -1.4405159163288772e-05, 9.735614730743691e-05, -3.626721809268929e-05, 2.4968654543044977e-05, 8.851723396219313e-05, 1.531336602056399e-05, -2.3899099687696435e-05, -3.7163681554375216e-05, 3.850597931887023e-05, -4.420327240950428e-05, -2.7663725632010028e-05, -5.648733349516988e-06, 4.640247789211571e-05, 2.4908695195335895e-05, -4.4187065213918686e-05, 0.00012909392535220832, -8.564092240703758e-06, -2.7760268494603224e-05, -3.624354940257035e-05, 9.155132283922285e-05, -2.8580216167028993e-05, -8.629197509435471e-06, 0.00012356859224382788, 7.982601346157026e-06, -4.766316578752594e-06, 1.3848140952177346e-05, -5.206757123232819e-06, -2.7728105123969726e-05, 6.477120678027859e-06, 0.000122347119031474)"
2022/07/12/22:54:16.819457,1030,1537392897,659938839,/world,0.124939240515,0.174462869763,-1.29422664642,-0.0225561691837,-0.410899094132,-0.635437041924,0.653355128525,"(0.00011707463272614405, -1.0215590009465814e-05, -1.846222767198924e-05, 4.601765613188036e-05, -5.123272057971917e-05, -7.316346909647109e-06, -1.0191340152232442e-05, 9.902808233164251e-05, -4.824484130949713e-05, 2.403310099907685e-05, 8.72913733473979e-05, 1.321510262641823e-05, -1.850845364970155e-05, -4.8258323658956215e-05, 4.58612157672178e-05, -4.315066689741798e-05, -3.798775651375763e-05, -3.7811962556588696e-06, 4.6122335334075615e-05, 2.4046225007623434e-05, -4.317597267800011e-05, 0.00013003907224629074, -7.357198228419293e-06, -2.8085923986509442e-05, -5.111460995976813e-05, 8.732830610824749e-05, -3.802900391747244e-05, -7.294634997379035e-06, 0.00011975182133028284, 5.270653673505876e-06, -7.205005658761365e-06, 1.3218410458648577e-05, -3.8099549328762805e-06, -2.803518327709753e-05, 5.348576905817026e-06, 0.00012048420467181131)"
2022/07/12/22:54:16.843347,1031,1537392897,692827714,/world,0.106901995838,0.160770460963,-1.29771578312,0.0300736718812,-0.420916748961,-0.652698251637,0.62921352462,"(0.00011617920972639695, -7.640634294148185e-07, -1.071122915163869e-05, 4.085687032784335e-05, -6.002002555760555e-05, -4.5934975787531585e-06, -7.661344056941743e-07, 9.836102253757417e-05, -5.6459368352079764e-05, 3.0201723348000087e-05, 7.961092342156917e-05, 9.000731552077923e-06, -1.0715315511333756e-05, -5.65035552426707e-05, 5.008359585190192e-05, -3.934217966161668e-05, -4.47632119175978e-05, -2.9486482162610628e-06, 4.0867125790100545e-05, 3.0224848160287365e-05, -3.937029396183789e-05, 0.0001180632971227169, -2.0034913177369162e-06, -2.276463965245057e-05, -6.002423833706416e-05, 7.967987039592117e-05, -4.482619624468498e-05, -1.9727967810467817e-06, 0.00011415934568503872, 1.8855560028896434e-06, -4.593935955199413e-06, 8.931325282901525e-06, -2.883483148252708e-06, -2.2805434127803892e-05, 1.7878234075396904e-06, 0.00011542267020558938)"
2022/07/12/22:54:16.865773,1032,1537392897,726008714,/world,0.0849720537663,0.140351697803,-1.29346227646,0.0791257495243,-0.412639765858,-0.670868623844,0.611066962023,"(0.00011600740253925323, 4.874501428275835e-06, -3.4509198485466186e-06, 4.362572144600563e-05, -6.515276618301868e-05, -6.352972832246451e-06, 4.703594186139526e-06, 0.0001031640131259337, -6.051978562027216e-05, 3.35753065883182e-05, 7.25535282981582e-05, 9.446354852116201e-06, -3.4569613944768207e-06, -6.051338277757168e-05, 5.240075915935449e-05, -3.6994973925175145e-05, -4.8348440031986684e-05, -2.402533937129192e-06, 4.373810952529311e-05, 3.341732008266263e-05, -3.700330853462219e-05, 0.00011534881923580542, 1.7521095969641465e-06, -2.284352740389295e-05, -6.540411413880065e-05, 7.293776434380561e-05, -4.833918865188025e-05, 1.5211001027637394e-06, 0.00010875707084778696, 2.2167369024828076e-06, -6.0969337027927395e-06, 9.051376764546148e-06, -2.410491333648679e-06, -2.261427835037466e-05, 1.6357445247194846e-06, 0.0001115150298574008)"
2022/07/12/22:54:16.893209,1033,1537392897,759175714,/world,0.0767643973231,0.113670557737,-1.28666329384,0.118253612668,-0.393962005618,-0.686574161236,0.599521430149,"(0.00011315470328554511, 7.787809408910107e-06, 3.885403202730231e-06, 4.6377892431337386e-05, -6.789719191147014e-05, -7.261903192556929e-06, 7.607206043758197e-06, 0.00010971236042678356, -6.216535257408395e-05, 3.8635767850792035e-05, 6.78598225931637e-05, 8.84081055119168e-06, 3.917897174687823e-06, -6.221108924364671e-05, 5.205535126151517e-05, -3.3532480301801115e-05, -5.083744690637104e-05, -1.8660782643564744e-06, 4.657754107029177e-05, 3.846667823381722e-05, -3.351299892528914e-05, 0.00011064366844948381, 4.370927854324691e-06, -2.190710620197933e-05, -6.821242277510464e-05, 6.818713154643774e-05, -5.091770435683429e-05, 4.0783211261441465e-06, 0.00010611828474793583, 2.523581542845932e-06, -6.9186048676783685e-06, 8.491851986036636e-06, -1.783723860171449e-06, -2.1584997739410028e-05, 1.9134124613628956e-06, 0.0001064715615939349)"
2022/07/12/22:54:16.910721,1034,1537392897,792347714,/world,0.0809314548969,0.0780453756452,-1.27891170979,0.15364412873,-0.360831060346,-0.702155648406,0.594282665805,"(0.00010964557441184297, 7.764442671032157e-06, 1.046569650497986e-05, 4.911013093078509e-05, -6.960511382203549e-05, -6.694081548630493e-06, 7.656734851479996e-06, 0.000116156559670344, -6.118482997408137e-05, 4.422455094754696e-05, 6.560807378264144e-05, 7.492789791285759e-06, 1.0609491255308967e-05, -6.124331412138417e-05, 4.938471465720795e-05, -2.9708271540584974e-05, -5.165155744180083e-05, -1.2878938377980376e-06, 4.930459908791818e-05, 4.414210343384184e-05, -2.9924240152467974e-05, 0.00010565503180259839, 4.9164500524057075e-06, -1.9895300283678807e-05, -7.00671153026633e-05, 6.573456630576402e-05, -5.197278369450942e-05, 4.930786872137105e-06, 0.00010484258382348344, 2.2072122192184906e-06, -6.013260644976981e-06, 7.354512945312308e-06, -7.135082569220685e-07, -2.0048504666192457e-05, 1.213052428283845e-06, 0.0001014478038996458)"
2022/07/12/22:54:16.935098,1035,1537392897,826151277,/world,0.0987516418099,0.045509327203,-1.277546525,0.179359911078,-0.319871998714,-0.713638405951,0.596851889053,"(0.00010542143718339503, 6.001218025630806e-06, 1.562510988151189e-05, 5.126924588694237e-05, -6.948218651814386e-05, -5.770028110418934e-06, 6.001426299917512e-06, 0.00012072391109541059, -5.800284634460695e-05, 5.0104277761420235e-05, 6.516726716654375e-05, 6.409118213923648e-06, 1.5626081221853383e-05, -5.799680366180837e-05, 4.3803313019452617e-05, -2.5751585781108588e-05, -5.1300143240951e-05, -8.730863214623241e-07, 5.127126496518031e-05, 5.009552478441037e-05, -2.5779048883123323e-05, 0.00010112609743373469, 5.026755843573483e-06, -1.8569551684777252e-05, -6.948803638806567e-05, 6.515561108244583e-05, -5.133778904564679e-05, 5.076191882835701e-06, 0.00010369886877015233, 1.957825361387222e-06, -5.769468771177344e-06, 6.4124124037334695e-06, -8.618700917395472e-07, -1.8586722944746725e-05, 1.935171212608111e-06, 9.504872286925092e-05)"
2022/07/12/22:54:16.960038,1036,1537392897,859326277,/world,0.125464677811,0.00433939509094,-1.26621234417,0.197524916826,-0.264803929101,-0.722158073451,0.607742125487,"(0.00010128684516530484, 3.315858975838637e-06, 1.9786231860052794e-05, 5.3142692195251584e-05, -6.829528865637258e-05, -3.546407469912083e-06, 3.3179328511323547e-06, 0.00012344737478997558, -5.225823770160787e-05, 5.565801984630525e-05, 6.650204886682332e-05, 5.189904641156318e-06, 1.9768611309700646e-05, -5.225971472100355e-05, 3.751996700884774e-05, -2.0790404960280284e-05, -4.936670302413404e-05, 2.5607768350255355e-08, 5.31923069502227e-05, 5.566115942201577e-05, -2.081590355373919e-05, 9.88592000794597e-05, 4.8542997319600545e-06, -1.752486059558578e-05, -6.83079197187908e-05, 6.650231807725504e-05, -4.9363392463419586e-05, 4.840523160964949e-06, 0.00010286957694916055, 1.0059821988761541e-06, -3.4832698929676553e-06, 5.19306058777147e-06, -2.7747606434758154e-09, -1.7442605894757435e-05, 9.806402658796287e-07, 9.047400817507878e-05)"
2022/07/12/22:54:16.980721,1037,1537392897,892501277,/world,0.15744677186,-0.0306260194629,-1.2553139925,0.207711486178,-0.213761405929,-0.725192964902,0.62069085687,"(9.638486517360434e-05, -6.192477286504072e-08, 2.277611565659754e-05, 5.3544667025562376e-05, -6.61503363517113e-05, -7.652145086467499e-07, -2.8414822494937653e-08, 0.00012332986807450652, -4.405516301630996e-05, 6.071694224374369e-05, 6.851807120256126e-05, 3.503450670905295e-06, 2.2765130779589526e-05, -4.40650837845169e-05, 2.9875009204261005e-05, -1.4496693438559305e-05, -4.57921159977559e-05, 1.3618521279568085e-06, 5.3712989029008895e-05, 6.074394696042873e-05, -1.4607238881580997e-05, 9.60429897531867e-05, 5.0604012358235195e-06, -1.6379382941522636e-05, -6.627682887483388e-05, 6.84950573486276e-05, -4.588589581544511e-05, 5.110889560455689e-06, 0.00010149620356969535, -6.925413913450029e-07, -4.858292754761351e-07, 3.5848897823598236e-06, 1.3852192068952718e-06, -1.628765676287003e-05, -9.825806728258613e-07, 8.509062172379345e-05)"
